[
    {
        "qid":  "Q28407331",
        "name":  "Aldershot Stadium",
        "lat":  51.239305555,
        "lng":  -0.735722222,
        "opened":  1941,
        "capacity":  null,
        "image":  null,
        "website":  null,
        "wikipedia":  "https://en.wikipedia.org/wiki/Aldershot_Stadium",
        "reason":  "Wikidata records a closure date; Wikipedia describes it in the past tense",
        "flagged":  "2026-07-20"
    },
    {
        "qid":  "Q4788880",
        "name":  "Arena Essex Raceway",
        "lat":  51.4942,
        "lng":  0.282778,
        "opened":  null,
        "capacity":  null,
        "image":  "https://commons.wikimedia.org/wiki/Special:FilePath/Arena%20Essex%20Raceway.jpg?width=900",
        "website":  null,
        "wikipedia":  "https://en.wikipedia.org/wiki/Arena_Essex_Raceway",
        "reason":  "Wikipedia describes it in the past tense; described as former/closed",
        "flagged":  "2026-07-20"
    },
    {
        "qid":  "Q4792527",
        "name":  "Armadale Stadium",
        "lat":  55.8983,
        "lng":  -3.68306,
        "opened":  1939,
        "capacity":  null,
        "image":  null,
        "website":  null,
        "wikipedia":  "https://en.wikipedia.org/wiki/Armadale_Stadium",
        "reason":  "described as former/closed",
        "flagged":  "2026-07-20"
    },
    {
        "qid":  "Q19360198",
        "name":  "Battersea Park Street Circuit",
        "lat":  51.4792,
        "lng":  -0.157222,
        "opened":  null,
        "capacity":  null,
        "image":  "https://commons.wikimedia.org/wiki/Special:FilePath/FIA%20Formula%20E%20Championship%20final%20London%2018.jpg?width=900",
        "website":  null,
        "wikipedia":  "https://en.wikipedia.org/wiki/Battersea_Park_Street_Circuit",
        "reason":  "Wikipedia describes it in the past tense",
        "flagged":  "2026-07-20"
    },
    {
        "qid":  "Q813859",
        "name":  "Bedford Autodrome",
        "lat":  52.2336,
        "lng":  -0.472222,
        "opened":  null,
        "capacity":  null,
        "image":  null,
        "website":  null,
        "wikipedia":  "https://en.wikipedia.org/wiki/Bedford_Autodrome",
        "reason":  "described as former/closed",
        "flagged":  "2026-07-20"
    },
    {
        "qid":  "Q929193",
        "name":  "Brooklands",
        "lat":  51.348888888,
        "lng":  -0.4725,
        "opened":  1907,
        "capacity":  null,
        "image":  "https://commons.wikimedia.org/wiki/Special:FilePath/Rally%20car%20on%20Members\u0027%20Banking.jpg?width=900",
        "website":  null,
        "wikipedia":  "https://en.wikipedia.org/wiki/Brooklands",
        "reason":  "Wikidata records a closure date; Wikipedia describes it in the past tense",
        "flagged":  "2026-07-20"
    },
    {
        "qid":  "Q2113852",
        "name":  "Clady Circuit",
        "lat":  54.6642,
        "lng":  -6.10639,
        "opened":  1922,
        "capacity":  null,
        "image":  null,
        "website":  null,
        "wikipedia":  "https://en.wikipedia.org/wiki/Clady_Circuit",
        "reason":  "Wikidata records a closure date",
        "flagged":  "2026-07-20"
    },
    {
        "qid":  "Q13399865",
        "name":  "Davidstow Circuit",
        "lat":  50.639,
        "lng":  -4.618,
        "opened":  null,
        "capacity":  null,
        "image":  "https://commons.wikimedia.org/wiki/Special:FilePath/Davidstow%201953.png?width=900",
        "website":  null,
        "wikipedia":  "https://en.wikipedia.org/wiki/Davidstow_Circuit",
        "reason":  "described as former/closed",
        "flagged":  "2026-07-20"
    },
    {
        "qid":  "Q173698",
        "name":  "Dundrod Circuit",
        "lat":  54.5808,
        "lng":  -6.08472,
        "opened":  1950,
        "capacity":  null,
        "image":  "https://commons.wikimedia.org/wiki/Special:FilePath/NI-Joey-Dunlop%201982UlsterGP.jpg?width=900",
        "website":  null,
        "wikipedia":  "https://en.wikipedia.org/wiki/Dundrod_Circuit",
        "reason":  "Wikidata records a closure date",
        "flagged":  "2026-07-20"
    },
    {
        "qid":  "Q109733312",
        "name":  "Harraby Park stadium",
        "lat":  54.877508,
        "lng":  -2.916791,
        "opened":  null,
        "capacity":  null,
        "image":  null,
        "website":  null,
        "wikipedia":  null,
        "reason":  "described as former/closed",
        "flagged":  "2026-07-20"
    },
    {
        "qid":  "Q5686886",
        "name":  "Hayley Stadium",
        "lat":  51.5719,
        "lng":  -2.93528,
        "opened":  null,
        "capacity":  null,
        "image":  "https://commons.wikimedia.org/wiki/Special:FilePath/Hayley%20Stadium%2C%20Newport%20-%20geograph.org.uk%20-%201705340.jpg?width=900",
        "website":  null,
        "wikipedia":  "https://en.wikipedia.org/wiki/Hayley_Stadium",
        "reason":  "Wikipedia describes it in the past tense",
        "flagged":  "2026-07-20"
    },
    {
        "qid":  "Q5984886",
        "name":  "Ibsley Circuit",
        "lat":  50.87944444,
        "lng":  -1.78055556,
        "opened":  null,
        "capacity":  null,
        "image":  null,
        "website":  null,
        "wikipedia":  "https://en.wikipedia.org/wiki/Ibsley_Circuit",
        "reason":  "Wikipedia describes it in the past tense",
        "flagged":  "2026-07-20"
    },
    {
        "qid":  "Q6674253",
        "name":  "Longridge circuit",
        "lat":  53.8369,
        "lng":  -2.58694,
        "opened":  null,
        "capacity":  null,
        "image":  null,
        "website":  null,
        "wikipedia":  "https://en.wikipedia.org/wiki/Longridge_Circuit",
        "reason":  "Wikipedia describes it in the past tense; described as former/closed",
        "flagged":  "2026-07-20"
    },
    {
        "qid":  "Q6901036",
        "name":  "Monmore Green Stadium",
        "lat":  52.5771,
        "lng":  -2.10187,
        "opened":  1928,
        "capacity":  null,
        "image":  "https://commons.wikimedia.org/wiki/Special:FilePath/Monmore%20Green%20-%20geograph.org.uk%20-%20385495.jpg?width=900",
        "website":  null,
        "wikipedia":  "https://en.wikipedia.org/wiki/Monmore_Green_Stadium",
        "reason":  "described as former/closed",
        "flagged":  "2026-07-20"
    },
    {
        "qid":  "Q6702892",
        "name":  "Lulsgate Aerodrome",
        "lat":  51.3823,
        "lng":  -2.7123,
        "opened":  null,
        "capacity":  null,
        "image":  null,
        "website":  null,
        "wikipedia":  "https://en.wikipedia.org/wiki/Lulsgate_Aerodrome",
        "reason":  "Wikipedia describes it in the past tense; described as former/closed",
        "flagged":  "2026-07-20"
    },
    {
        "qid":  "Q7113216",
        "name":  "Oval Raceway",
        "lat":  50.837,
        "lng":  -0.471,
        "opened":  null,
        "capacity":  null,
        "image":  "https://commons.wikimedia.org/wiki/Special:FilePath/Car%20jump.jpg?width=900",
        "website":  null,
        "wikipedia":  "https://en.wikipedia.org/wiki/Oval_Raceway",
        "reason":  "Wikipedia describes it in the past tense; described as former/closed",
        "flagged":  "2026-07-20"
    },
    {
        "qid":  "Q2654550",
        "name":  "Rockingham Motor Speedway",
        "lat":  52.515,
        "lng":  -0.6575,
        "opened":  null,
        "capacity":  null,
        "image":  "https://commons.wikimedia.org/wiki/Special:FilePath/Rockingham%20Motor%20Speedway%20aerial.jpg?width=900",
        "website":  null,
        "wikipedia":  "https://en.wikipedia.org/wiki/Rockingham_Motor_Speedway",
        "reason":  "Wikipedia describes it in the past tense",
        "flagged":  "2026-07-20"
    },
    {
        "qid":  "Q109857532",
        "name":  "Penarth Road stadium",
        "lat":  51.459551,
        "lng":  -3.195749,
        "opened":  null,
        "capacity":  null,
        "image":  null,
        "website":  null,
        "wikipedia":  "https://en.wikipedia.org/wiki/Penarth_Road_Stadium",
        "reason":  "Wikipedia describes it in the past tense; described as former/closed",
        "flagged":  "2026-07-20"
    },
    {
        "qid":  "Q28403386",
        "name":  "Parkneuk Sports Stadium",
        "lat":  55.79722,
        "lng":  -3.99167,
        "opened":  1949,
        "capacity":  null,
        "image":  null,
        "website":  null,
        "wikipedia":  "https://en.wikipedia.org/wiki/Parkneuk_Sports_Stadium",
        "reason":  "Wikidata records a closure date; Wikipedia describes it in the past tense",
        "flagged":  "2026-07-20"
    },
    {
        "qid":  "Q7377939",
        "name":  "Rufforth Circuit",
        "lat":  53.9492,
        "lng":  -1.1848,
        "opened":  null,
        "capacity":  null,
        "image":  null,
        "website":  null,
        "wikipedia":  "https://en.wikipedia.org/wiki/Rufforth_Circuit",
        "reason":  "described as former/closed",
        "flagged":  "2026-07-20"
    },
    {
        "qid":  "Q17673917",
        "name":  "Brooklands motor racing circuit, remains of the pre-World War II aerodrome, World War II Bofors tower and shelters, and the Brooklands memorial",
        "lat":  51.3508,
        "lng":  -0.46856,
        "opened":  null,
        "capacity":  null,
        "image":  "https://commons.wikimedia.org/wiki/Special:FilePath/A%20section%20of%20high%20speed%20banking%20at%20the%20Brooklands%20motor%20racing%20circuit%2C%20Surrey%2C%20England.jpg?width=900",
        "website":  null,
        "wikipedia":  null,
        "reason":  "heritage-monument entity, not an active venue",
        "flagged":  "2026-07-20"
    },
    {
        "qid":  "Q7462792",
        "name":  "Shakespeare County Raceway",
        "lat":  52.1374,
        "lng":  -1.75727,
        "opened":  null,
        "capacity":  null,
        "image":  "https://commons.wikimedia.org/wiki/Special:FilePath/Global%20Gathering%202012%20-%20geograph.org.uk%20-%207072508.jpg?width=900",
        "website":  "https://www.shakespearecountyraceway.co.uk",
        "wikipedia":  "https://en.wikipedia.org/wiki/Shakespeare_County_Raceway",
        "reason":  "venue closed in 2017; website dead",
        "flagged":  "2026-07-20"
    }
]