[
    {
        "qid":  "Q12221467",
        "name":  "Aintree Motor Racing Circuit",
        "lat":  53.476944444,
        "lng":  -2.940555555,
        "opened":  null,
        "capacity":  null,
        "image":  "https://commons.wikimedia.org/wiki/Special:FilePath/Vanwall%20VW5%20Aintree%201957.jpg?width=900",
        "website":  null,
        "wikipedia":  "https://en.wikipedia.org/wiki/Aintree_Motor_Racing_Circuit"
    },
    {
        "qid":  "Q28407331",
        "name":  "Aldershot Stadium",
        "lat":  51.239305555,
        "lng":  -0.735722222,
        "opened":  1941,
        "capacity":  null,
        "image":  null,
        "website":  null,
        "wikipedia":  "https://en.wikipedia.org/wiki/Aldershot_Stadium"
    },
    {
        "qid":  "Q4788880",
        "name":  "Arena Essex Raceway",
        "lat":  51.4942,
        "lng":  0.282778,
        "opened":  null,
        "capacity":  null,
        "image":  "https://commons.wikimedia.org/wiki/Special:FilePath/Arena%20Essex%20Raceway.jpg?width=900",
        "website":  null,
        "wikipedia":  "https://en.wikipedia.org/wiki/Arena_Essex_Raceway"
    },
    {
        "qid":  "Q4792527",
        "name":  "Armadale Stadium",
        "lat":  55.8983,
        "lng":  -3.68306,
        "opened":  1939,
        "capacity":  null,
        "image":  null,
        "website":  null,
        "wikipedia":  "https://en.wikipedia.org/wiki/Armadale_Stadium"
    },
    {
        "qid":  "Q19360198",
        "name":  "Battersea Park Street Circuit",
        "lat":  51.4792,
        "lng":  -0.157222,
        "opened":  null,
        "capacity":  null,
        "image":  "https://commons.wikimedia.org/wiki/Special:FilePath/FIA%20Formula%20E%20Championship%20final%20London%2018.jpg?width=900",
        "website":  null,
        "wikipedia":  "https://en.wikipedia.org/wiki/Battersea_Park_Street_Circuit"
    },
    {
        "qid":  "Q813859",
        "name":  "Bedford Autodrome",
        "lat":  52.2336,
        "lng":  -0.472222,
        "opened":  null,
        "capacity":  null,
        "image":  null,
        "website":  null,
        "wikipedia":  "https://en.wikipedia.org/wiki/Bedford_Autodrome"
    },
    {
        "qid":  "Q929193",
        "name":  "Brooklands",
        "lat":  51.348888888,
        "lng":  -0.4725,
        "opened":  1907,
        "capacity":  null,
        "image":  "https://commons.wikimedia.org/wiki/Special:FilePath/Rally%20car%20on%20Members\u0027%20Banking.jpg?width=900",
        "website":  null,
        "wikipedia":  "https://en.wikipedia.org/wiki/Brooklands"
    },
    {
        "qid":  "Q17673917",
        "name":  "Brooklands motor racing circuit, remains of the pre-World War II aerodrome, World War II Bofors tower and shelters, and the Brooklands memorial",
        "lat":  51.3508,
        "lng":  -0.46856,
        "opened":  null,
        "capacity":  null,
        "image":  "https://commons.wikimedia.org/wiki/Special:FilePath/A%20section%20of%20high%20speed%20banking%20at%20the%20Brooklands%20motor%20racing%20circuit%2C%20Surrey%2C%20England.jpg?width=900",
        "website":  null,
        "wikipedia":  null
    },
    {
        "qid":  "Q2113852",
        "name":  "Clady Circuit",
        "lat":  54.6642,
        "lng":  -6.10639,
        "opened":  1922,
        "capacity":  null,
        "image":  null,
        "website":  null,
        "wikipedia":  "https://en.wikipedia.org/wiki/Clady_Circuit"
    },
    {
        "qid":  "Q5185658",
        "name":  "Crimond Raceway",
        "lat":  57.6083,
        "lng":  -1.89617,
        "opened":  null,
        "capacity":  null,
        "image":  null,
        "website":  null,
        "wikipedia":  "https://en.wikipedia.org/wiki/Crimond_Raceway"
    },
    {
        "qid":  "Q5197264",
        "name":  "Cwmythig Hill",
        "lat":  52.3261,
        "lng":  -3.49056,
        "opened":  null,
        "capacity":  null,
        "image":  null,
        "website":  null,
        "wikipedia":  null
    },
    {
        "qid":  "Q13399865",
        "name":  "Davidstow Circuit",
        "lat":  50.639,
        "lng":  -4.618,
        "opened":  null,
        "capacity":  null,
        "image":  "https://commons.wikimedia.org/wiki/Special:FilePath/Davidstow%201953.png?width=900",
        "website":  null,
        "wikipedia":  "https://en.wikipedia.org/wiki/Davidstow_Circuit"
    },
    {
        "qid":  "Q48772190",
        "name":  "Driftland",
        "lat":  56.12781,
        "lng":  -3.2788,
        "opened":  null,
        "capacity":  null,
        "image":  null,
        "website":  "http://www.driftlanduk.com/",
        "wikipedia":  "https://en.wikipedia.org/wiki/Driftland"
    },
    {
        "qid":  "Q173698",
        "name":  "Dundrod Circuit",
        "lat":  54.5808,
        "lng":  -6.08472,
        "opened":  1950,
        "capacity":  null,
        "image":  "https://commons.wikimedia.org/wiki/Special:FilePath/NI-Joey-Dunlop%201982UlsterGP.jpg?width=900",
        "website":  null,
        "wikipedia":  "https://en.wikipedia.org/wiki/Dundrod_Circuit"
    },
    {
        "qid":  "Q2238063",
        "name":  "Eddie Wright Raceway",
        "lat":  53.61639,
        "lng":  -0.65444,
        "opened":  null,
        "capacity":  null,
        "image":  "https://commons.wikimedia.org/wiki/Special:FilePath/Scunthorpe%20Speedway%20-%20geograph.org.uk%20-%20476688.jpg?width=900",
        "website":  null,
        "wikipedia":  "https://en.wikipedia.org/wiki/Eddie_Wright_Raceway"
    },
    {
        "qid":  "Q74677490",
        "name":  "ExCeL Street Circuit",
        "lat":  51.508333333,
        "lng":  0.0275,
        "opened":  2021,
        "capacity":  null,
        "image":  null,
        "website":  null,
        "wikipedia":  null
    },
    {
        "qid":  "Q5477172",
        "name":  "Foxhill motocross circuit",
        "lat":  51.537,
        "lng":  -1.673,
        "opened":  null,
        "capacity":  null,
        "image":  null,
        "website":  null,
        "wikipedia":  "https://en.wikipedia.org/wiki/Foxhill_motocross_circuit"
    },
    {
        "qid":  "Q109733312",
        "name":  "Harraby Park stadium",
        "lat":  54.877508,
        "lng":  -2.916791,
        "opened":  null,
        "capacity":  null,
        "image":  null,
        "website":  null,
        "wikipedia":  null
    },
    {
        "qid":  "Q5686886",
        "name":  "Hayley Stadium",
        "lat":  51.5719,
        "lng":  -2.93528,
        "opened":  null,
        "capacity":  null,
        "image":  "https://commons.wikimedia.org/wiki/Special:FilePath/Hayley%20Stadium%2C%20Newport%20-%20geograph.org.uk%20-%201705340.jpg?width=900",
        "website":  null,
        "wikipedia":  "https://en.wikipedia.org/wiki/Hayley_Stadium"
    },
    {
        "qid":  "Q15223473",
        "name":  "Hednesford Hills Raceway",
        "lat":  52.70865278,
        "lng":  -1.977975,
        "opened":  1952,
        "capacity":  null,
        "image":  "https://commons.wikimedia.org/wiki/Special:FilePath/Hednesford%20Hills%20Raceway%20-%20geograph.org.uk%20-%208199814.jpg?width=900",
        "website":  null,
        "wikipedia":  "https://en.wikipedia.org/wiki/Hednesford_Hills_Raceway"
    },
    {
        "qid":  "Q5984886",
        "name":  "Ibsley Circuit",
        "lat":  50.87944444,
        "lng":  -1.78055556,
        "opened":  null,
        "capacity":  null,
        "image":  null,
        "website":  null,
        "wikipedia":  "https://en.wikipedia.org/wiki/Ibsley_Circuit"
    },
    {
        "qid":  "Q19902506",
        "name":  "Ingliston Racing Circuit",
        "lat":  55.94305556,
        "lng":  -3.3775,
        "opened":  null,
        "capacity":  null,
        "image":  null,
        "website":  null,
        "wikipedia":  "https://en.wikipedia.org/wiki/Ingliston_Racing_Circuit"
    },
    {
        "qid":  "Q16893472",
        "name":  "King\u0027s Lynn Stadium",
        "lat":  52.7302,
        "lng":  0.389156,
        "opened":  1951,
        "capacity":  null,
        "image":  "https://commons.wikimedia.org/wiki/Special:FilePath/NorfolkArena.jpg?width=900",
        "website":  null,
        "wikipedia":  "https://en.wikipedia.org/wiki/King%27s_Lynn_Stadium"
    },
    {
        "qid":  "Q6415707",
        "name":  "Kirkistown Circuit",
        "lat":  54.456,
        "lng":  -5.469,
        "opened":  null,
        "capacity":  null,
        "image":  null,
        "website":  null,
        "wikipedia":  "https://en.wikipedia.org/wiki/Kirkistown_Circuit"
    },
    {
        "qid":  "Q114811655",
        "name":  "Lochgelly Raceway",
        "lat":  56.126456,
        "lng":  -3.27821,
        "opened":  null,
        "capacity":  null,
        "image":  null,
        "website":  "https://www.hardieracepromotions.co.uk/",
        "wikipedia":  null
    },
    {
        "qid":  "Q6674253",
        "name":  "Longridge circuit",
        "lat":  53.8369,
        "lng":  -2.58694,
        "opened":  null,
        "capacity":  null,
        "image":  null,
        "website":  null,
        "wikipedia":  "https://en.wikipedia.org/wiki/Longridge_Circuit"
    },
    {
        "qid":  "Q6702892",
        "name":  "Lulsgate Aerodrome",
        "lat":  51.3823,
        "lng":  -2.7123,
        "opened":  null,
        "capacity":  null,
        "image":  null,
        "website":  null,
        "wikipedia":  "https://en.wikipedia.org/wiki/Lulsgate_Aerodrome"
    },
    {
        "qid":  "Q98212688",
        "name":  "Melbourne Raceway",
        "lat":  53.86755,
        "lng":  -0.83932,
        "opened":  null,
        "capacity":  null,
        "image":  null,
        "website":  null,
        "wikipedia":  null
    },
    {
        "qid":  "Q6816657",
        "name":  "Mendips Raceway",
        "lat":  51.2976,
        "lng":  -2.7706,
        "opened":  null,
        "capacity":  null,
        "image":  "https://commons.wikimedia.org/wiki/Special:FilePath/Banger%20Racing%20track%20blockage%20at%20Mendips%20Raceway.jpg?width=900",
        "website":  null,
        "wikipedia":  "https://en.wikipedia.org/wiki/Mendips_Raceway"
    },
    {
        "qid":  "Q6901036",
        "name":  "Monmore Green Stadium",
        "lat":  52.5771,
        "lng":  -2.10187,
        "opened":  1928,
        "capacity":  null,
        "image":  "https://commons.wikimedia.org/wiki/Special:FilePath/Monmore%20Green%20-%20geograph.org.uk%20-%20385495.jpg?width=900",
        "website":  null,
        "wikipedia":  "https://en.wikipedia.org/wiki/Monmore_Green_Stadium"
    },
    {
        "qid":  "Q3115714",
        "name":  "Odsal Stadium",
        "lat":  53.765,
        "lng":  -1.756944,
        "opened":  1933,
        "capacity":  27491,
        "image":  "https://commons.wikimedia.org/wiki/Special:FilePath/Bradford%20Bulls%20Stadium%2C%20Odsal%20Top%20(geograph%208265285).jpg?width=900",
        "website":  "https://odsalstadium.co.uk",
        "wikipedia":  "https://en.wikipedia.org/wiki/Odsal_Stadium"
    },
    {
        "qid":  "Q115727538",
        "name":  "Oliver\u0027s Mount racing circuit",
        "lat":  54.2637,
        "lng":  -0.4056,
        "opened":  null,
        "capacity":  null,
        "image":  "https://commons.wikimedia.org/wiki/Special:FilePath/Motorcycle%20racing%20-%20Olivers%20Mount%20-%20geograph.org.uk%20-%20126358.jpg?width=900",
        "website":  null,
        "wikipedia":  null
    },
    {
        "qid":  "Q7113216",
        "name":  "Oval Raceway",
        "lat":  50.837,
        "lng":  -0.471,
        "opened":  null,
        "capacity":  null,
        "image":  "https://commons.wikimedia.org/wiki/Special:FilePath/Car%20jump.jpg?width=900",
        "website":  null,
        "wikipedia":  "https://en.wikipedia.org/wiki/Oval_Raceway"
    },
    {
        "qid":  "Q28403386",
        "name":  "Parkneuk Sports Stadium",
        "lat":  55.79722,
        "lng":  -3.99167,
        "opened":  1949,
        "capacity":  null,
        "image":  null,
        "website":  null,
        "wikipedia":  "https://en.wikipedia.org/wiki/Parkneuk_Sports_Stadium"
    },
    {
        "qid":  "Q109857532",
        "name":  "Penarth Road stadium",
        "lat":  51.459551,
        "lng":  -3.195749,
        "opened":  null,
        "capacity":  null,
        "image":  null,
        "website":  null,
        "wikipedia":  "https://en.wikipedia.org/wiki/Penarth_Road_Stadium"
    },
    {
        "qid":  "Q2654550",
        "name":  "Rockingham Motor Speedway",
        "lat":  52.515,
        "lng":  -0.6575,
        "opened":  null,
        "capacity":  null,
        "image":  "https://commons.wikimedia.org/wiki/Special:FilePath/Rockingham%20Motor%20Speedway%20aerial.jpg?width=900",
        "website":  null,
        "wikipedia":  "https://en.wikipedia.org/wiki/Rockingham_Motor_Speedway"
    },
    {
        "qid":  "Q7377939",
        "name":  "Rufforth Circuit",
        "lat":  53.9492,
        "lng":  -1.1848,
        "opened":  null,
        "capacity":  null,
        "image":  null,
        "website":  null,
        "wikipedia":  "https://en.wikipedia.org/wiki/Rufforth_Circuit"
    },
    {
        "qid":  "Q7462792",
        "name":  "Shakespeare County Raceway",
        "lat":  52.1374,
        "lng":  -1.75727,
        "opened":  null,
        "capacity":  null,
        "image":  null,
        "website":  "https://www.shakespearecountyraceway.co.uk",
        "wikipedia":  "https://en.wikipedia.org/wiki/Shakespeare_County_Raceway"
    },
    {
        "qid":  "Q1350354",
        "name":  "Snaefell Mountain Course",
        "lat":  54.16777778,
        "lng":  -4.47777778,
        "opened":  1904,
        "capacity":  null,
        "image":  "https://commons.wikimedia.org/wiki/Special:FilePath/Sidecar%20crew%20at%20Molyneux\u0027s%2C%20Isle%20of%20Man.jpg?width=900",
        "website":  null,
        "wikipedia":  "https://en.wikipedia.org/wiki/Isle_of_Man_TT_Mountain_Course"
    },
    {
        "qid":  "Q24901502",
        "name":  "Swaffham Raceway Stadium",
        "lat":  52.65482778,
        "lng":  0.63101111,
        "opened":  null,
        "capacity":  null,
        "image":  "https://commons.wikimedia.org/wiki/Special:FilePath/Swaffham%20Raceway%20track%20under%20floods.jpg?width=900",
        "website":  null,
        "wikipedia":  "https://en.wikipedia.org/wiki/Swaffham_Raceway"
    },
    {
        "qid":  "Q26699992",
        "name":  "Tandragee 100",
        "lat":  54.3289,
        "lng":  -6.4549,
        "opened":  null,
        "capacity":  null,
        "image":  "https://commons.wikimedia.org/wiki/Special:FilePath/Tandrageekurs.png?width=900",
        "website":  "https://tandragee100.co.uk/",
        "wikipedia":  "https://en.wikipedia.org/wiki/Tandragee_100"
    },
    {
        "qid":  "Q110822362",
        "name":  "Three Sisters Race Circuit",
        "lat":  53.506555555,
        "lng":  -2.632666666,
        "opened":  null,
        "capacity":  null,
        "image":  "https://commons.wikimedia.org/wiki/Special:FilePath/Three%20Sisters%20karting%202.jpg?width=900",
        "website":  null,
        "wikipedia":  "https://en.wikipedia.org/wiki/Three_Sisters_Circuit"
    },
    {
        "qid":  "Q2630372",
        "name":  "Top Gear test track",
        "lat":  51.1164,
        "lng":  -0.541463,
        "opened":  null,
        "capacity":  null,
        "image":  "https://commons.wikimedia.org/wiki/Special:FilePath/TG%20Test%20Track.PNG?width=900",
        "website":  null,
        "wikipedia":  "https://en.wikipedia.org/wiki/Top_Gear_test_track"
    }
]